[{"name":"Teekkariravintolat","address":"Otakaari 24, Espoo","campus":"Otaniemi","open":"Mon-Fri 10:30-15:00","url":{"fi":"http://www.sodexo.fi/dipoli"},"location":{"lat":60.1847778,"lng":24.8309887},"meals":{"fi":[["Dipoli buffet suljettu 20.12.2014 - 6.1.2015"],["Dipoli buffet suljettu 20.12.2014 - 6.1.2015"]],"en":[["Dipoli buffet is closed 20.12.2014-6.1.2015"],["Dipoli buffet is closed 20.12.2014-6.1.2015"]]}},{"name":"TUAS-talo","address":"Otaniementie 17, Espoo","campus":"Otaniemi","open":"Mon-Fri 10:30-14:00","url":{"fi":"http://www.amica.fi/api/restaurant/menu/week?language=fi&restaurantPageId=9291&weekDate=","en":"http://www.amica.fi/api/restaurant/menu/week?language=en&restaurantPageId=9291&weekDate="},"location":{"lat":60.1868196,"lng":24.8187598},"meals":{"fi":[],"en":[]}},{"name":"Alvari","address":"Otakaari 2, Espoo","campus":"Otaniemi","open":"Mon-Thu 10:30-17:00, Fri 10:30-15:00","url":{"fi":"http://www.amica.fi/api/restaurant/menu/week?language=fi&restaurantPageId=9271&weekDate=","en":"http://www.amica.fi/api/restaurant/menu/week?language=en&restaurantPageId=9271&weekDate="},"location":{"lat":60.1862055,"lng":24.8262297},"meals":{"fi":[["Broilerinugetteja (L, M, A)","Chilimajoneesia (L, G, A)","Ranskalaisia perunoita (L, G, M)","Kalakeittoa (G, *, A)","Bataatti-kookoskermacurrya (L, G, M, Veg, VS)","Höyrytettyä riisiä (L, G, M)","Hedelmärahkaa (L, G, A)"],["Riisipuuroa (G, A)","Sekahedelmäkiisseliä (L, G, M, Veg)","Piparkakkuja ()","Glögiä ()"]],"en":[]}},{"name":"Elissa","address":"Otakaari 2, Espoo","campus":"Otaniemi","open":"Mon-Fri 08:00-14:00","url":{"fi":"http://www.amica.fi/api/restaurant/menu/week?language=fi&restaurantPageId=9281&weekDate="},"location":{"lat":60.1862055,"lng":24.8262297},"meals":{"fi":[],"en":[]}},{"name":"Puu","address":"Tekniikantie 3, Espoo","campus":"Otaniemi","open":"Mon-Fri 10:30-13:30","url":{"fi":"http://www.amica.fi/api/restaurant/menu/week?language=fi&restaurantPageId=9286&weekDate="},"location":{"lat":60.1805857,"lng":24.8249123}},{"name":"Täffä","address":"Otakaari 22, Espoo","campus":"Otaniemi","open":"Mon-Thu 10:30-16:00, Fri 10:30-15:00","url":{"fi":"https://www.teknologforeningen.fi/index.php?option=com_content&view=article&id=277&Itemid=128&lang=fi","en":"https://www.teknologforeningen.fi/index.php?option=com_content&view=article&id=277&Itemid=128&lang=en"},"location":{"lat":60.1858857,"lng":24.83245},"meals":{"fi":[["No menu available"],["No menu available"],["No menu available"],["No menu available"],["No menu available"]],"en":[["No menu available"],["No menu available"],["No menu available"],["No menu available"],["No menu available"]]}},{"name":"Kvarkki","address":"Otakaari 3, Espoo","campus":"Otaniemi","open":"Mon-Fri 10:30-15:00","url":{"fi":"http://www.amica.fi/api/restaurant/menu/week?language=fi&restaurantPageId=9301&weekDate=","en":"http://www.amica.fi/api/restaurant/menu/week?language=en&restaurantPageId=9301&weekDate="},"location":{"lat":60.1883476,"lng":24.8294072},"meals":{"fi":[],"en":[]}},{"name":"Silinteri","address":"Otakaari 1 D, Espoo","campus":"Otaniemi","open":"Mon-Fri 11:40-13:00","url":{"fi":"http://www.amica.fi/api/restaurant/menu/week?language=fi&restaurantPageId=9310&weekDate="},"location":{"lat":60.1869326,"lng":24.8272611},"meals":{"fi":[],"en":[]}},{"name":"Cantina","address":"Otakaari 24, Espoo","campus":"Otaniemi","open":"Mon-Thu 11:00-22:30, Fri 11:00-22:30, Sat 11:00-17:00","url":{"fi":"http://www.sodexo.fi/cantina"},"location":{"lat":60.1847778,"lng":24.8309887}},{"name":"Laurea Otaniemi","address":"Metsänpojankuja 3, Espoo","campus":"Otaniemi","open":"Mon-Thu 11:00-13:15, Fri 11:00-13:00","url":{"fi":"http://www.amica.fi/api/restaurant/menu/week?language=fi&restaurantPageId=5628&weekDate="},"location":{"lat":60.1858113,"lng":24.8054439},"meals":{"fi":[],"en":[]}},{"name":"Rafla","address":"Runeberginkatu 14, Helsinki","campus":"Töölö","open":"Mon-Fri 10:30-16:15","url":{"fi":"http://www.amica.fi/api/restaurant/menu/week?language=fi&restaurantPageId=8059&weekDate=","en":"http://www.amica.fi/api/restaurant/menu/week?language=en&restaurantPageId=8059&weekDate="},"location":{"lat":60.1709066,"lng":24.9236468},"meals":{"fi":[["Broileri-kookoskermakastiketta (L, G, *, A)","Ruis-riisiä (L, M, *, A)","Kukkakaali-perunacurrya (L, G, M, *, Veg, VS)","Ruis-riisiä (L, M, *, A)","Mozzarella-tomaattisalaattia ja paahdettua leipää (*, A)","Siikaa mausteisessa tomaattikastikkeessa (L, G, M, *, A)","Perunasosetta (L, G, *, A)"],["Rapeita kalapaloja (L, M, *, A)","Perunasosetta (L, G, *, A)","Tartarkastiketta (L, G, A)","Kikherne-bataattipataa (L, G, M, *, Veg, VS, A)","Ruis-riisiä (L, M, *, A)","Katkarapusalaatti (L, G, *, A)","Pehmeäksi haudutettua naudanrintaa (L, G, M)","Tummaa hunajakastiketta (L, G, M, A)","Annanperunoita (G, VL, A)"]],"en":[]}},{"name":"Chydenia","address":"Runeberginkatu 22, Helsinki","campus":"Töölö","open":"Mon-Thu 11:00-14:30, Fri 11:00-14:00","url":{"fi":"http://www.amica.fi/api/restaurant/menu/week?language=fi&restaurantPageId=5794&weekDate=","en":"http://www.amica.fi/api/restaurant/menu/week?language=en&restaurantPageId=5794&weekDate="},"location":{"lat":60.1735677,"lng":24.9222099},"meals":{"fi":[],"en":[]}},{"name":"Hanken","address":"Arkadiankatu 22, Helsinki","campus":"Töölö","open":"Mon-Fri 11:00-15:00","url":{"fi":"http://www.amica.fi/api/restaurant/menu/week?language=fi&restaurantPageId=6170&weekDate=","en":"http://www.amica.fi/api/restaurant/menu/week?language=en&restaurantPageId=6170&weekDate="},"location":{"lat":60.1712571,"lng":24.9243845},"meals":{"fi":[],"en":[]}},{"name":"Sibelius-Akatemia / Café da Capo","address":"Pohjoinen Rautatiekatu 9, Helsinki","campus":"Töölö","open":"Mon-Thu 10:30-15:00, Fri 10:30-14:30","url":{"fi":"http://www.amica.fi/Ravintolat/Amica-ravintolat/Ravintolat-kaupungeittain/Helsinki/Sibelius-Akatemia-Cafe-da-Capo/","en":"http://www.amica.fi/en/Ravintolat/Amica-restaurants/Areas/Helsinki/The-Sibelius-Academy--Cafe-da-Capo-/"},"location":{"lat":60.1715396,"lng":24.9325754}},{"name":"Cafe da Capo","address":"Töölönkatu 28, Helsinki","campus":"Töölö","open":"Mon-Thu 10:30-16:00, Fri 10:30-15:00","url":{"fi":"http://www.amica.fi/cafedacapo","en":"http://www.amica.fi/en/cafedacapo"},"location":{"lat":60.1785198,"lng":24.9266378}},{"name":"HYSn Osakuntabaari","address":"Urho Kekkosen katu 4-6 D, Helsinki","campus":"Töölö","open":"Mon-Thu 11:00-15:30, Fri 11:00-15:00","url":{"fi":"http://www.hys.net/opiskelijapalvelut/osakuntabaari/ruokalista"},"location":{"lat":60.1687878,"lng":24.9343696},"meals":{"fi":[["Osakuntabaari on","suljettu 13.12.2014-7.1.2015!"],["Osakuntabaari on","suljettu 13.12.2014-7.1.2015!"],["Osakuntabaari on","suljettu 13.12.2014-7.1.2015!"],["Osakuntabaari on","suljettu 13.12.2014-7.1.2015!"],["Osakuntabaari on","suljettu 13.12.2014-7.1.2015!"]],"en":[["The bar is mainly used by the","Closed 13.12.2014-7.1.2015!"],["The bar is mainly used by the","Closed 13.12.2014-7.1.2015!"],["The bar is mainly used by the","Closed 13.12.2014-7.1.2015!"],["The bar is mainly used by the","Closed 13.12.2014-7.1.2015!"],["The bar is mainly used by the","Closed 13.12.2014-7.1.2015!"]]}},{"name":"Musiikkitalon Ravintola","address":"Mannerheimintie 13 A, Helsinki","campus":"Töölö","open":"Mon-Fri 11:00-15:00","url":{"fi":"http://www.tapahtumaravintolat.fi/musiikkitalo/Ravintolapalvelut/fi_FI/Ravintola/"},"location":{"lat":60.1731905,"lng":24.9344303}},{"name":"Kipsari","address":"Hämeentie 135 E, Helsinki","campus":"Arabia","open":"Mon-Fri 08:00-19:00","url":{"fi":"https://www.facebook.com/kipsari"},"location":{"lat":60.2087625,"lng":24.9756101}},{"name":"Meccala","address":"Hämeentie 135 C, Helsinki","campus":"Arabia","open":"Mon-Thu 10:30-14:15, Fri 10:30-14:00","url":{"fi":"http://www.amica.fi/api/restaurant/menu/week?language=fi&restaurantPageId=7693&weekDate=","en":"http://www.amica.fi/api/restaurant/menu/week?language=en&restaurantPageId=6170&weekDate="},"location":{"lat":60.2087625,"lng":24.9756101},"meals":{"fi":[],"en":[]}},{"name":"Ravintola Arabianranta","address":"Hämeentie 135 A, Helsinki","campus":"Arabia","open":"Mon-Fri 10:30-13:30","url":{"fi":"http://www.compass-group.fi/ravintolat/Helsinki/ravintola-arabianranta/Lounaslista/"},"location":{"lat":60.2087625,"lng":24.9756101},"meals":{"fi":[[],[],[],[]],"en":[[],[],[],[]]}},{"name":"Unicafe Chemicum","address":"A.I. Virtasen aukio 1, Helsinki","campus":"Kumpula","open":"Mon-Thu 10:30-15:30, Fri 10:30-15:00","url":{"fi":"http://www.hyyravintolat.fi/rss/fin/10/","en":"http://www.hyyravintolat.fi/rss/eng/10/"},"location":{"lat":60.2060455,"lng":24.9634222},"meals":{"fi":[[" "],[" "],[],[],[],[],[]],"en":[[" "],[" "],[],[],[],[],[]]}},{"name":"Unicafe Exactum","address":"Gustaf Hällströmin katu 2 B, Helsinki","campus":"Kumpula","open":"Mon-Fri 11:00-14:30","url":{"fi":"http://www.hyyravintolat.fi/rss/fin/11/","en":"http://www.hyyravintolat.fi/rss/eng/11/"},"location":{"lat":60.2049747,"lng":24.9634712}},{"name":"Unicafe Metsätalo","address":"Fabianinkatu 39, Helsinki","campus":"Keskusta","open":"Mon-Thu 10:30-16:00, Fri 10:30-15:00","url":{"fi":"http://www.hyyravintolat.fi/rss/fin/1/","en":"http://www.hyyravintolat.fi/rss/eng/1/"},"location":{"lat":60.1722975,"lng":24.949109}},{"name":"Unicafe Olivia","address":"Siltavuorenpenger 5 A, Helsinki","campus":"Keskusta","open":"Mon-Thu 10:30-16:00, Fri 10:30-15:30","url":{"fi":"http://www.hyyravintolat.fi/rss/fin/2/","en":"http://www.hyyravintolat.fi/rss/eng/2/"},"location":{"lat":60.1751035,"lng":24.9533853}},{"name":"Unicafe Porthania","address":"Yliopistonkatu 3, Helsinki","campus":"Keskusta","open":"Mon-Thu 10:30-16:30, Fri 10:30-16:00","url":{"fi":"http://www.hyyravintolat.fi/rss/fin/3/","en":"http://www.hyyravintolat.fi/rss/eng/3/"},"location":{"lat":60.1699536,"lng":24.9484354}},{"name":"Unicafe Päärakennus","address":"Fabianinkatu 33, Helsinki","campus":"Keskusta","open":"Mon-Fri 10:30-16:30","url":{"fi":"http://www.hyyravintolat.fi/rss/fin/4/","en":"http://www.hyyravintolat.fi/rss/eng/4/"},"location":{"lat":60.16944179999999,"lng":24.9494575}},{"name":"Unicafe Rotunda","address":"Unioninkatu 36, Helsinki","campus":"Keskusta","open":"Mon-Fri 11:00-13:30","url":{"fi":"http://www.hyyravintolat.fi/rss/fin/5/","en":"http://www.hyyravintolat.fi/rss/eng/5/"},"location":{"lat":60.170351,"lng":24.9506851}},{"name":"Unicafe Soc&Kom","address":"Yrjö-Koskisen katu 3, Helsinki","campus":"Keskusta","open":"Mon-Fri 11:00-14:30","url":{"fi":"http://www.hyyravintolat.fi/rss/fin/15/","en":"http://www.hyyravintolat.fi/rss/eng/15/"},"location":{"lat":60.1730803,"lng":24.9525119}},{"name":"Unicafe Topelias","address":"Unioninkatu 38, Helsinki","campus":"Keskusta","open":"Mon-Thu 11:00-14:30, Fri 11:00-14:00","url":{"fi":"http://www.hyyravintolat.fi/rss/fin/6/","en":"http://www.hyyravintolat.fi/rss/eng/6/"},"location":{"lat":60.17186450000001,"lng":24.9504841}},{"name":"Unicafe Valtiotiede","address":"Unioninkatu 37, Helsinki","campus":"Keskusta","open":"Mon-Fri 11:00-14:00","url":{"fi":"http://www.hyyravintolat.fi/rss/fin/7/","en":"http://www.hyyravintolat.fi/rss/eng/7/"},"location":{"lat":60.173379,"lng":24.9506235}},{"name":"Unicafe Ylioppilasaukio","address":"Mannerheimintie 3 B, Helsinki","campus":"Keskusta","open":"Mon-Fri 11:00-19:00, Sat 11:00-18:00","url":{"fi":"http://www.hyyravintolat.fi/rss/fin/8/","en":"http://www.hyyravintolat.fi/rss/eng/8/"},"location":{"lat":60.1693166,"lng":24.9408102},"meals":{"fi":[[" "],[" "],[],[],[],[],[]],"en":[[" "],[" "],[],[],[],[],[]]}},{"name":"Unicafe Kookos","address":"Haapaniemenkatu 6, Helsinki","campus":"Kallio","open":"Mon-Thu 11:00-17:00, Fri 11:00-15:00","url":{"fi":"http://www.hyyravintolat.fi/rss/fin/16/","en":"http://www.hyyravintolat.fi/rss/eng/16/"},"location":{"lat":60.1811256,"lng":24.9587522}},{"name":"Unicafe Biokeskus","address":"Viikinkaari 9, Helsinki","campus":"Viikki","open":"Mon-Fri 10:30-15:00","url":{"fi":"http://www.hyyravintolat.fi/rss/fin/18/","en":"http://www.hyyravintolat.fi/rss/eng/18/"},"location":{"lat":60.2269484,"lng":25.0139846},"meals":{"fi":[[" "],[" "],[],[],[],[],[]],"en":[[" "],[" "],[],[],[],[],[]]}},{"name":"Unicafe Korona","address":"Viikinkaari 11, Helsinki","campus":"Viikki","open":"Mon-Fri 11:00-14:00","url":{"fi":"http://www.hyyravintolat.fi/rss/fin/19/","en":"http://www.hyyravintolat.fi/rss/eng/19/"},"location":{"lat":60.2271911,"lng":25.0123344}},{"name":"Unicafe Viikuna","address":"Agnes Sjöbergin katu 2, Helsinki","campus":"Viikki","open":"Mon-Fri 10:30-14:30","url":{"fi":"http://www.hyyravintolat.fi/rss/fin/21/","en":"http://www.hyyravintolat.fi/rss/eng/21/"},"location":{"lat":60.229297,"lng":25.0218129}},{"name":"Tähkä","address":"Koetilantie 7, Helsinki","campus":"Viikki","open":"Mon-Thu 10:30-13:30, Fri 10:30-13:00","url":{"fi":"http://www.amica.fi/api/restaurant/menu/week?language=en&restaurantPageId=6340&weekDate="},"location":{"lat":60.2230593,"lng":25.0206768},"meals":{"fi":[],"en":[]}},{"name":"Ladonlukko","address":"Latokartanonkaari 9 A, Helsinki","campus":"Viikki","open":"Mon-Fri 10:30-14:30","url":{"fi":"http://www.sodexo.fi/ravintolaladonlukko"},"location":{"lat":60.2290679,"lng":25.0185889}},{"name":"Arcada","address":null,"campus":"Kallio / Vallila","open":"Mon-Thu 10:45-15:15, Fri 10:45-14:30","url":{"fi":"http://www.amica.fi/api/restaurant/menu/week?language=fi&restaurantPageId=7734&weekDate="},"location":{"lat":null,"lng":null},"meals":{"fi":[],"en":[]}},{"name":"Diakonia","address":null,"campus":"Kallio / Vallila","open":"Mon-Fri 10:45-13:00","url":{"fi":"http://www.amica.fi/api/restaurant/menu/week?language=fi&restaurantPageId=6033&weekDate="},"location":{"lat":null,"lng":null},"meals":{"fi":[],"en":[]}},{"name":"Helia-Bistro","address":null,"campus":"Pasila","open":"Mon-Fri 10:30-14:00","url":{"fi":"http://www.amica.fi/api/restaurant/menu/week?language=fi&restaurantPageId=6143&weekDate="},"location":{"lat":null,"lng":null},"meals":{"fi":[],"en":[]}},{"name":"Alppica","address":null,"campus":"Kallio / Vallila","open":"Mon-Fri 10:30-13:30","url":{"fi":"http://www.amica.fi/api/restaurant/menu/week?language=fi&restaurantPageId=6181&weekDate="},"location":{"lat":null,"lng":null},"meals":{"fi":[["Lipeäkalaa (L, G, M, A)","Valkokastiketta (A)","Keitettyjä perunoita (L, G, M, *)","Quorn-kasvisruukkua (VL, A)","Ruis-riisiä (L, M, *, A)","Suklaamoussea (G, A)"]],"en":[["Lye Fish (L, G, M, A)","White Sauce (A)","Boiled potatoes (L, G, M, *)","Quorn vegetarian Cruse (VL, A)","Rye-rice (L, M, *, A)","Chocolate Mousse (G, A)"]]}},{"name":"Tähkä","address":null,"campus":"Töölö","open":"Mon-Fri 10:30-13:00","url":{"fi":"http://www.amica.fi/api/restaurant/menu/week?language=fi&restaurantPageId=6340&weekDate="},"location":{"lat":null,"lng":null},"meals":{"fi":[["Pyttipannua (L, G, M)","Luomutofu-kasviscurrya (L, G, M, *, Veg, VS, A)","Ruis-riisiä (L, M, *, A)","Suklaamoussea (G, A)"],["Jauhelihalasagnea (A)","Lohikeittoa (G, *, A)","Soija-kasvistortilloja (L, *, VS, A)","Mansikkarahkaa (L, G, A)"]],"en":[["Potato Hash (L, G, M)","Luomutofu-vegetable Curry (L, G, M, *, Veg, VS, A)","Rye-rice (L, M, *, A)","Chocolate Mousse (G, A)"],["Ground Beef Lasagna (A)","Salmon Soup (G, *, A)","Soy-kasvistortilloja (L, *, VS, A)","Strawberry Curd (L, G, A)"]]}},{"name":"Pääraide Opetustalo","address":null,"campus":"Pasila","open":"Mon-Thu 10:15-16:00, Fri 10:15-14:30","url":{"fi":"http://www.amica.fi/api/restaurant/menu/week?language=fi&restaurantPageId=7041&weekDate="},"location":{"lat":null,"lng":null},"meals":{"fi":[],"en":[]}},{"name":"Jamipaja","address":null,"campus":"Arabia","open":"Mon-Fri 11:00-14:30","url":{"fi":"http://www.amica.fi/api/restaurant/menu/week?language=fi&restaurantPageId=6996&weekDate="},"location":{"lat":null,"lng":null},"meals":{"fi":[],"en":[]}},{"name":"Teak","address":null,"campus":"Kallio / Vallila","open":"Mon-Thu 11:00-17:00, Fri 11:00-16:00","url":{"fi":"http://www.amica.fi/api/restaurant/menu/week?language=fi&restaurantPageId=5457&weekDate="},"location":{"lat":null,"lng":null},"meals":{"fi":[],"en":[]}},{"name":"Mäkelän Koulu","address":null,"campus":"Kallio / Vallila","open":"Mon-Fri 10:30-14:00","url":{"fi":"http://www.sodexo.fi/hbc"},"location":{"lat":null,"lng":null}},{"name":"Unicafe Meilahti","address":null,"campus":"Meilahti","open":"Mon-Thu 10:30-14:30, Fri 10:30-14:00","url":{"en":"http://www.hyyravintolat.fi/en/unicafe#/Meilahti/Meilahti/4/13","fi":"http://www.hyyravintolat.fi/unicafe#/Meilahti/Meilahti/4/13"},"location":{"lat":null,"lng":null},"meals":{"fi":[],"en":[]}},{"name":"Unicafe Ruskeasuo","address":null,"campus":"Ruskeasuo","open":"Mon-Thu 10:30-14:30, Fri 10:30-14:00","url":{"en":"http://www.hyyravintolat.fi/en/unicafe#/Ruskeasuo/Ruskeasuo/8/14","fi":"http://www.hyyravintolat.fi/unicafe#/Ruskeasuo/Ruskeasuo/8/14"},"location":{"lat":null,"lng":null},"meals":{"fi":[],"en":[]}},{"name":"Ravintola Serpens Yths","address":null,"campus":"Töölö","open":"Mon-Fri 10:30-19:00","url":{"en":"http://www.hyyravintolat.fi/en/unicafe#/YTHS/Ravintola%20Serpens/10/42","fi":"http://www.hyyravintolat.fi/unicafe#/YTHS/Ravintola%20Serpens/10/42"},"location":{"lat":null,"lng":null},"meals":{"fi":[],"en":[]}},{"name":"Metropolia Bulevardi","address":null,"campus":"Keskusta","open":"Mon-Fri 10:30-14:30","url":{"en":"http://www.hyyravintolat.fi/en/unicafe#/Metropolia/Bulevardi/9/28","fi":"http://www.hyyravintolat.fi/unicafe#/Metropolia/Bulevardi/9/28"},"location":{"lat":null,"lng":null},"meals":{"fi":[],"en":[]}},{"name":"Metropolia Hämeentie","address":null,"campus":"Kallio / Vallila","open":"Mon-Fri 10:30-14:30","url":{"en":"http://www.hyyravintolat.fi/en/unicafe#/Metropolia/Hameentie/9/33","fi":"http://www.hyyravintolat.fi/unicafe#/Metropolia/Hameentie/9/33"},"location":{"lat":null,"lng":null},"meals":{"fi":[],"en":[]}},{"name":"Metropolia Sofianlehto","address":null,"campus":"Kumpula","open":"Mon-Fri 10:30-15:30","url":{"en":"http://www.hyyravintolat.fi/en/unicafe#/Metropolia/Sofianlehto/9/34","fi":"http://www.hyyravintolat.fi/unicafe#/Metropolia/Sofianlehto/9/34"},"location":{"lat":null,"lng":null},"meals":{"fi":[],"en":[]}},{"name":"Metropolia Tukholmankatu","address":null,"campus":"Meilahti","open":"Mon-Thu 10:30-14:30, Fri 10:30-14:00","url":{"en":"http://www.hyyravintolat.fi/en/unicafe#/Metropolia/Tukholmankatu/9/31","fi":"http://www.hyyravintolat.fi/unicafe#/Metropolia/Tukholmankatu/9/31"},"location":{"lat":null,"lng":null},"meals":{"fi":[],"en":[]}}]